[{"building_id":2, "building_name":"STC", "latitude":43.81465, "longitude":-111.78466, "coordinates":"43\u00b048'52\"N 111\u00b047'04\"W"},
 {"building_id":3, "building_name":"Austin", "latitude":43.8158, "longitude":-111.78454, "coordinates":"43\u00b048'57\"N 111\u00b047'04\"W"},
 {"building_id":4, "building_name":"Benson", "latitude":43.81538, "longitude":-111.7832, "coordinates":"43\u00b048'55\"N 111\u00b046'59\"W"},
 {"building_id":5, "building_name":"Ricks", "latitude":43.81481, "longitude":-111.78141, "coordinates":"43\u00b048'53\"N 111\u00b046'53\"W"},
 {"building_id":6, "building_name":"Taylor", "latitude":43.81693, "longitude":-111.78252, "coordinates":"43\u00b049'01\"N 111\u00b046'57\"W"},
 {"building_id":7, "building_name":"MC", "latitude":43.8185, "longitude":-111.78254, "coordinates":"43\u00b049'07\"N 111\u00b046'57\"W"},
 {"building_id":9, "building_name":"I-Center", "latitude":43.8185, "longitude":-111.78504, "coordinates":"43\u00b049'07\"N 111\u00b047'06\"W"},
 {"building_id":10, "building_name":"McKay Library", "latitude":43.81944, "longitude":-111.78318, "coordinates":"43\u00b049'10\"N 111\u00b046'59\"W"},
 {"building_id":11, "building_name":"Hart", "latitude":43.81958, "longitude":-111.78528, "coordinates":"43\u00b049'10.0\"N 111\u00b047'07.0\"W"},
 {"building_id":12, "building_name":"Smith", "latitude":43.81917, "longitude":-111.78149, "coordinates":"43\u00b049'09\"N 111\u00b046'53\"W"},
 {"building_id":13, "building_name":"Clarke", "latitude":43.82022, "longitude":-111.78175, "coordinates":"43\u00b049'13\"N 111\u00b046'54\"W"},
 {"building_id":14, "building_name":"Spori", "latitude":43.82083, "longitude":-111.78243, "coordinates":"43\u00b049'15\"N 111\u00b046'57\"W"},
 {"building_id":15, "building_name":"Romney", "latitude":43.82022, "longitude":-111.78323, "coordinates":"43\u00b049'13\"N 111\u00b047'00\"W"},
 {"building_id":16, "building_name":"Snow", "latitude":43.82126, "longitude":-111.78382, "coordinates":"43\u00b049'17\"N 111\u00b047'02\"W"},
 {"building_id":17, "building_name":"Kimball", "latitude":43.81709, "longitude":-111.78157, "coordinates":"43\u00b049'02\"N 111\u00b046'54\"W"},
 {"building_id":18, "building_name":"Hinckley", "latitude":43.81589, "longitude":-111.7799, "coordinates":"43\u00b048'57\"N 111\u00b046'48\"W"},
 {"building_id":19, "building_name":"Rigby", "latitude":43.81703, "longitude":-111.78454, "coordinates":"43\u00b049'01\"N 111\u00b047'04\"W"},
 {"building_id":20, "building_name":"Biddulph", "latitude":43.81703, "longitude":-111.78518, "coordinates":"43\u00b049'01\"N 111\u00b047'07\"W"},
 {"building_id":21, "building_name":"Health Center", "latitude":43.81672, "longitude":-111.77938, "coordinates":"43\u00b049'00\"N 111\u00b046'46\"W"},
 {"building_id":22, "building_name":"ETC", "latitude":43.81411, "longitude":-111.7831, "coordinates":"43\u00b048'51\"N 111\u00b046'59\"W"}]